{
  "data": [
    {
      "latitude": 48.424346,
      "longitude": -123.465174,
      "type": "venue",
      "distance": 0.617,
      "name": "Esquimalt Lagoon",
      "number": null,
      "postal_code": null,
      "street": null,
      "confidence": 0.6,
      "region": "British Columbia",
      "region_code": "BC",
      "county": "Capital",
      "locality": "Colwood",
      "administrative_area": null,
      "neighbourhood": null,
      "country": "Canada",
      "country_code": "CAN",
      "continent": "North America",
      "label": "Esquimalt Lagoon, Colwood, BC, Canada"
    },
    {
      "latitude": 48.424346,
      "longitude": -123.465174,
      "type": "venue",
      "distance": 0.617,
      "name": "Coburg Peninsula",
      "number": null,
      "postal_code": null,
      "street": null,
      "confidence": 0.6,
      "region": "British Columbia",
      "region_code": "BC",
      "county": "Capital",
      "locality": "Colwood",
      "administrative_area": null,
      "neighbourhood": null,
      "country": "Canada",
      "country_code": "CAN",
      "continent": "North America",
      "label": "Coburg Peninsula, Colwood, BC, Canada"
    },
    {
      "latitude": 48.41633,
      "longitude": -123.4526,
      "type": "venue",
      "distance": 0.683,
      "name": "Royal Roads",
      "number": null,
      "postal_code": null,
      "street": null,
      "confidence": 0.6,
      "region": "British Columbia",
      "region_code": "BC",
      "county": null,
      "locality": null,
      "administrative_area": null,
      "neighbourhood": null,
      "country": "Canada",
      "country_code": "CAN",
      "continent": "North America",
      "label": "Royal Roads, BC, Canada"
    },
    {
      "latitude": 48.421743,
      "longitude": -123.472198,
      "type": "address",
      "distance": 0.922,
      "name": "207 Seafield Rd",
      "number": "207",
      "postal_code": null,
      "street": "Seafield Rd",
      "confidence": 0.6,
      "region": "British Columbia",
      "region_code": "BC",
      "county": "Capital",
      "locality": "Colwood",
      "administrative_area": null,
      "neighbourhood": null,
      "country": "Canada",
      "country_code": "CAN",
      "continent": "North America",
      "label": "207 Seafield Rd, Colwood, BC, Canada"
    },
    {
      "latitude": 48.421256,
      "longitude": -123.472452,
      "type": "address",
      "distance": 0.93,
      "name": "205 Seafield Rd",
      "number": "205",
      "postal_code": null,
      "street": "Seafield Rd",
      "confidence": 0.6,
      "region": "British Columbia",
      "region_code": "BC",
      "county": "Capital",
      "locality": "Colwood",
      "administrative_area": null,
      "neighbourhood": null,
      "country": "Canada",
      "country_code": "CAN",
      "continent": "North America",
      "label": "205 Seafield Rd, Colwood, BC, Canada"
    },
    {
      "latitude": 48.422292,
      "longitude": -123.472293,
      "type": "address",
      "distance": 0.943,
      "name": "201 Portsmouth Dr",
      "number": "201",
      "postal_code": null,
      "street": "Portsmouth Dr",
      "confidence": 0.6,
      "region": "British Columbia",
      "region_code": "BC",
      "county": "Capital",
      "locality": "Colwood",
      "administrative_area": null,
      "neighbourhood": null,
      "country": "Canada",
      "country_code": "CAN",
      "continent": "North America",
      "label": "201 Portsmouth Dr, Colwood, BC, Canada"
    },
    {
      "latitude": 48.419909,
      "longitude": -123.472868,
      "type": "address",
      "distance": 0.951,
      "name": "170 Goldfinch Rd",
      "number": "170",
      "postal_code": null,
      "street": "Goldfinch Rd",
      "confidence": 0.6,
      "region": "British Columbia",
      "region_code": "BC",
      "county": "Capital",
      "locality": "Colwood",
      "administrative_area": null,
      "neighbourhood": null,
      "country": "Canada",
      "country_code": "CAN",
      "continent": "North America",
      "label": "170 Goldfinch Rd, Colwood, BC, Canada"
    },
    {
      "latitude": 48.418588,
      "longitude": -123.472803,
      "type": "address",
      "distance": 0.959,
      "name": "3271 Anchorage Ave",
      "number": "3271",
      "postal_code": null,
      "street": "Anchorage Ave",
      "confidence": 0.6,
      "region": "British Columbia",
      "region_code": "BC",
      "county": "Capital",
      "locality": "Colwood",
      "administrative_area": null,
      "neighbourhood": null,
      "country": "Canada",
      "country_code": "CAN",
      "continent": "North America",
      "label": "3271 Anchorage Ave, Colwood, BC, Canada"
    },
    {
      "latitude": 48.418506,
      "longitude": -123.472803,
      "type": "address",
      "distance": 0.96,
      "name": "3273 Anchorage Ave",
      "number": "3273",
      "postal_code": null,
      "street": "Anchorage Ave",
      "confidence": 0.6,
      "region": "British Columbia",
      "region_code": "BC",
      "county": "Capital",
      "locality": "Colwood",
      "administrative_area": null,
      "neighbourhood": null,
      "country": "Canada",
      "country_code": "CAN",
      "continent": "North America",
      "label": "3273 Anchorage Ave, Colwood, BC, Canada"
    },
    {
      "latitude": 48.417121,
      "longitude": -123.472317,
      "type": "address",
      "distance": 0.965,
      "name": "2901 Ocean Boulevard",
      "number": "2901",
      "postal_code": null,
      "street": "Ocean Boulevard",
      "confidence": 0.6,
      "region": "British Columbia",
      "region_code": "BC",
      "county": "Capital",
      "locality": "Colwood",
      "administrative_area": null,
      "neighbourhood": null,
      "country": "Canada",
      "country_code": "CAN",
      "continent": "North America",
      "label": "2901 Ocean Boulevard, Colwood, BC, Canada"
    }
  ]
}
